[{"founded_year":2010,"name":"GENWI","offices":[{"city":"Los Altos","description":"","address1":"4966 El Camino Real","address2":"Suite 200","longitude":-111.9035,"country_code":"USA","latitude":33.8171,"state_code":"CA","zip_code":"94022"}],"total_money_raised":"$7.1M"},{"founded_year":2013,"name":"Fixya","offices":[{"city":"San Mateo","description":"","address1":"One Franklin Parkway","address2":"Building 910, Suite 110","longitude":-122.323895,"country_code":"USA","latitude":37.566879,"state_code":"CA","zip_code":"94401"}],"total_money_raised":"$8M"},{"founded_year":2010,"name":"Needium","offices":[{"city":"Montreal","description":"Needium HQ","address1":"460 Ste-Catherine W. #402","address2":"","longitude":-73.5681635,"country_code":"CAN","latitude":45.5049305,"state_code":null,"zip_code":"H3B1A7"}],"total_money_raised":"$1M"},{"founded_year":2011,"name":"RazorGator","offices":[{"city":"Los Angeles","description":null,"address1":"11150 Santa Monica Blvd. Suite 500","address2":null,"longitude":-118.445243,"country_code":"USA","latitude":34.047312,"state_code":"CA","zip_code":"90025"}],"total_money_raised":"$58.8M"},{"founded_year":2012,"name":"Skydeck","offices":[{"city":"Palo Alto","description":"","address1":"330 Waverley St.","address2":"Suite 3","longitude":-122.3254705,"country_code":"USA","latitude":37.5645375,"state_code":"CA","zip_code":"94301"}],"total_money_raised":"$4M"},{"founded_year":2009,"name":"Handipoints","offices":[{"city":"Oakland","description":null,"address1":"","address2":"","longitude":-122.214897,"country_code":"USA","latitude":37.772323,"state_code":"CA","zip_code":""}],"total_money_raised":"$800k"},{"founded_year":2011,"name":"Moblica","offices":[{"city":"Tel Aviv","description":"HQ","address1":"88 Menachem Begin Street","address2":"","longitude":34.7595,"country_code":"ISR","latitude":32.0554,"state_code":null,"zip_code":"67138"}],"total_money_raised":"$6M"},{"founded_year":2010,"name":"Magento","offices":[{"city":"Los Angeles","description":null,"address1":"","address2":"","longitude":-118.243425,"country_code":"USA","latitude":34.052187,"state_code":"CA","zip_code":""}],"total_money_raised":"$22.5M"},{"founded_year":2010,"name":"Pixsta","offices":[{"city":"London","description":null,"address1":"9 Thorpe Close","address2":"Portobello Rd","longitude":-0.208979,"country_code":"GBR","latitude":51.51819,"state_code":null,"zip_code":"W10 5XL"}],"total_money_raised":"\u00a33M"},{"founded_year":2011,"name":"FirstString","offices":[{"city":"Los Angeles","description":null,"address1":"","address2":"","longitude":-118.243425,"country_code":"USA","latitude":34.052187,"state_code":"CA","zip_code":""}],"total_money_raised":"$200k"},{"founded_year":2010,"name":"Titan Gaming","offices":[{"city":"Santa Monica","description":"Santa Monica Office","address1":"1351 4th Street, 4th floor","address2":"","longitude":-113.515769,"country_code":"USA","latitude":53.544711,"state_code":"CA","zip_code":"90401"}],"total_money_raised":"$1M"},{"founded_year":2009,"name":"CompareAway","offices":[{"city":"Durham","description":"Direct Holiday Bookings","address1":"Green Lane","address2":"Spennymoor","longitude":-1.574948,"country_code":"GBR","latitude":54.703145,"state_code":null,"zip_code":"DL16 6JF"}],"total_money_raised":"\u00a3500k"},{"founded_year":2010,"name":"vufind","offices":[{"city":"Sunnyvale","description":"Headquarters","address1":"1290 oakmead parkway, suite 107","address2":"","longitude":-122.145153,"country_code":"USA","latitude":37.424614,"state_code":"CA","zip_code":"94085"}],"total_money_raised":"$930k"},{"founded_year":2011,"name":"travelmob","offices":[{"city":"Singapore","description":"HQ","address1":"71 Ayer Rajah Crescent","address2":"06-20","longitude":-157.78907,"country_code":"SGP","latitude":21.303049,"state_code":null,"zip_code":"139951"}],"total_money_raised":"$1M"},{"founded_year":2010,"name":"UsingMiles","offices":[{"city":"Denver","description":"Headquarters","address1":"1514 Blake St","address2":"","longitude":-104.9998449,"country_code":"USA","latitude":39.749671,"state_code":"CO","zip_code":"80202"}],"total_money_raised":"$3.27M"},{"founded_year":2009,"name":"Burt","offices":[{"city":"Gothenburg","description":"","address1":"Karl Gustavsgatan 1A","address2":"","longitude":18.036587,"country_code":"SWE","latitude":59.337864,"state_code":null,"zip_code":"41125"}],"total_money_raised":"$3.5M"},{"founded_year":2009,"name":"Inuvo","offices":[{"city":"Clearwater","description":"Clearwater, FL","address1":"15500 Lightwave Dr.","address2":"Suite 300","longitude":-82.702449,"country_code":"USA","latitude":27.913011,"state_code":"FL","zip_code":"33760"}],"total_money_raised":"$4.2M"},{"founded_year":2011,"name":"Kidos","offices":[{"city":"New York","description":"Mailing Address","address1":"355 E. 72nd St., Suite 4E","address2":"","longitude":-73.956599,"country_code":"USA","latitude":40.768058,"state_code":"NY","zip_code":"10021"},{"city":"Brooklyn","description":"Corporate Headquarters","address1":"153 Roebling St.","address2":"","longitude":-73.957854,"country_code":"USA","latitude":40.714056,"state_code":"NY","zip_code":"11211"}],"total_money_raised":"$200k"},{"founded_year":2010,"name":"vufind","offices":[{"city":"Sunnyvale","description":"Headquarters","address1":"1290 oakmead parkway, suite 107","address2":"","longitude":-122.145153,"country_code":"USA","latitude":37.424614,"state_code":"CA","zip_code":"94085"}],"total_money_raised":"$930k"},{"founded_year":2011,"name":"travelmob","offices":[{"city":"Singapore","description":"HQ","address1":"71 Ayer Rajah Crescent","address2":"06-20","longitude":-157.78907,"country_code":"SGP","latitude":21.303049,"state_code":null,"zip_code":"139951"}],"total_money_raised":"$1M"},{"founded_year":2010,"name":"UsingMiles","offices":[{"city":"Denver","description":"Headquarters","address1":"1514 Blake St","address2":"","longitude":-104.9998449,"country_code":"USA","latitude":39.749671,"state_code":"CO","zip_code":"80202"}],"total_money_raised":"$3.27M"},{"founded_year":2009,"name":"Burt","offices":[{"city":"Gothenburg","description":"","address1":"Karl Gustavsgatan 1A","address2":"","longitude":18.036587,"country_code":"SWE","latitude":59.337864,"state_code":null,"zip_code":"41125"}],"total_money_raised":"$3.5M"},{"founded_year":2009,"name":"Inuvo","offices":[{"city":"Clearwater","description":"Clearwater, FL","address1":"15500 Lightwave Dr.","address2":"Suite 300","longitude":-82.702449,"country_code":"USA","latitude":27.913011,"state_code":"FL","zip_code":"33760"}],"total_money_raised":"$4.2M"},{"founded_year":2011,"name":"Kidos","offices":[{"city":"New York","description":"Mailing Address","address1":"355 E. 72nd St., Suite 4E","address2":"","longitude":-73.956599,"country_code":"USA","latitude":40.768058,"state_code":"NY","zip_code":"10021"},{"city":"Brooklyn","description":"Corporate Headquarters","address1":"153 Roebling St.","address2":"","longitude":-73.957854,"country_code":"USA","latitude":40.714056,"state_code":"NY","zip_code":"11211"}],"total_money_raised":"$200k"},{"founded_year":2009,"name":"Star Fever Agency","offices":[{"city":"Quebec","description":"","address1":"410, boul Charest,","address2":"suite 250","longitude":-71.2373393,"country_code":"CAN","latitude":46.8081938,"state_code":null,"zip_code":"G1K 8M4"}],"total_money_raised":"$550k"},{"founded_year":2010,"name":"Yipit","offices":[{"city":"New York","description":"HQ","address1":"3 W 18th","address2":"2nd Floor","longitude":-73.987764,"country_code":"USA","latitude":40.744618,"state_code":"NY","zip_code":"10011"}],"total_money_raised":"$7.55M"},{"founded_year":2011,"name":"Queralt","offices":[{"city":"North Haven","description":"","address1":"250 State Street","address2":"Suite G1","longitude":-72.8190106,"country_code":"USA","latitude":41.4778641,"state_code":"CT","zip_code":"06473"}],"total_money_raised":"$650k"},{"founded_year":2009,"name":"Jolicloud","offices":[{"city":"Paris","description":"","address1":"","address2":"","longitude":2.3509871,"country_code":"FRA","latitude":48.8566667,"state_code":null,"zip_code":""}],"total_money_raised":"$4.2M"},{"founded_year":2009,"name":"ScaleMP","offices":[{"city":"Cupertino","description":"","address1":"20863 Stevens Creek Blvd.","address2":"Suite 275","longitude":-122.0385792,"country_code":"USA","latitude":37.3229727,"state_code":"CA","zip_code":"95014"}],"total_money_raised":"$8M"},{"founded_year":2011,"name":"VisualOn","offices":[{"city":"Santa Clara","description":"Headquarters","address1":"4675 Stevens Creek Blvd","address2":"# 200","longitude":-121.955879,"country_code":"USA","latitude":37.270518,"state_code":"CA","zip_code":"95051"}],"total_money_raised":"$3.1M"},{"founded_year":2009,"name":"Heyzap","offices":[{"city":"San Francisco","description":"Head Quaters","address1":"3rd Floor, 251 Kearny Street","address2":"Kearny Street","longitude":-122.4041485,"country_code":"USA","latitude":37.7905538,"state_code":"CA","zip_code":"94108"}],"total_money_raised":"$7.97M"},{"founded_year":2009,"name":"Talari Networks","offices":[{"city":"San Jose","description":"Headquarters","address1":"550 S. Winchester Blvd.","address2":"Suite 500","longitude":-121.949417,"country_code":"USA","latitude":37.317735,"state_code":"CA","zip_code":"95128"},{"city":"Morrisville","description":"Research and Development","address1":"1100 Perimeter Park Dr","address2":"","longitude":-78.8267112,"country_code":"USA","latitude":35.8535092,"state_code":"NC","zip_code":"27560"}],"total_money_raised":"$45.1M"},{"founded_year":2009,"name":"Shutl","offices":[{"city":"London","description":"LaunchPad","address1":"11 Curtain Road,","address2":"2nd Floor, THe Courtyard Building","longitude":-0.1020265,"country_code":"GBR","latitude":51.5196135,"state_code":null,"zip_code":"EC2A3LT"}],"total_money_raised":"\u00a37.66M"},{"founded_year":2010,"name":"BASH Gaming","offices":[{"city":"Fremont","description":"US Office","address1":"","address2":"","longitude":-122.0780632,"country_code":"USA","latitude":37.5561712,"state_code":"CA","zip_code":"94555"},{"city":"Bangalore","description":"India Office","address1":"","address2":"","longitude":77.594376,"country_code":"IND","latitude":12.971606,"state_code":null,"zip_code":""}],"total_money_raised":"$1M"},{"founded_year":2010,"name":"AppNeta","offices":[{"city":"SOUTH BOSTON","description":"AppNeta","address1":"285 Summer Street","address2":"4th Floor","longitude":-71.24756,"country_code":"USA","latitude":42.318138,"state_code":"MA","zip_code":"02127"}],"total_money_raised":"$55.8M"},{"founded_year":2010,"name":"MyLikes","offices":[{"city":"San Francisco","description":"","address1":"1000 Brannan St, #502","address2":"","longitude":-122.408914,"country_code":"USA","latitude":37.777995,"state_code":"CA","zip_code":"94103"}],"total_money_raised":"$6.23M"},{"founded_year":2009,"name":"Simulmedia","offices":[{"city":"New York","description":"","address1":"670 Broadway","address2":"Second Floor","longitude":-73.994797,"country_code":"USA","latitude":40.727216,"state_code":"NY","zip_code":"10012"}],"total_money_raised":"$57.3M"},{"founded_year":2009,"name":"Gridstore","offices":[{"city":"Mountain View","description":"Gridstore","address1":"1975 Lndings Drive","address2":"","longitude":-122.0884286,"country_code":"USA","latitude":37.4189073,"state_code":"CA","zip_code":"94043"}],"total_money_raised":"\u20ac25M"},{"founded_year":2009,"name":"GameChanger Media","offices":[{"city":"New York","description":"New York Office","address1":"86 Chambers St","address2":"2nd Floor","longitude":-74.0136605,"country_code":"USA","latitude":40.7078343,"state_code":"NY","zip_code":"10007"}],"total_money_raised":"$3.64M"},{"founded_year":2009,"name":"Z2Live","offices":[{"city":"Seattle","description":"Z2Live","address1":"1601 2nd Ave","address2":"Suite 800","longitude":-122.3399782,"country_code":"USA","latitude":47.6103008,"state_code":"WA","zip_code":"98101"}],"total_money_raised":"$6.5M"},{"founded_year":2009,"name":"Gate 53|10 Technologies","offices":[{"city":"Hamburg","description":"Headquarters","address1":"Arndtstr 18-20","address2":"","longitude":10.0184565,"country_code":"DEU","latitude":53.5736401,"state_code":null,"zip_code":"22085"}],"total_money_raised":"\u20ac141k"},{"founded_year":2009,"name":"oneforty","offices":[{"city":"Cambridge","description":"Main office","address1":"614 Massachusetts Ave, Suite 203","address2":"","longitude":-71.101375,"country_code":"USA","latitude":42.364014,"state_code":"MA","zip_code":"02139"}],"total_money_raised":"$2.35M"},{"founded_year":2009,"name":"TV Pixie","offices":[{"city":"London","description":"Headquarters","address1":"","address2":"","longitude":-0.1852079,"country_code":"GBR","latitude":51.5206682,"state_code":null,"zip_code":"NW6 1TE"}],"total_money_raised":"\u20ac50k"},{"founded_year":2010,"name":"Jobzle","offices":[{"city":"Providence","description":"Jobzle HQ","address1":"1 Davol Square","address2":"","longitude":-71.4030891,"country_code":"USA","latitude":41.8274209,"state_code":"RI","zip_code":"02903"}],"total_money_raised":"$30k"},{"founded_year":2009,"name":"Catchafire","offices":[{"city":"New York","description":"","address1":"31 East 32nd Street","address2":"","longitude":-73.983171,"country_code":"USA","latitude":40.746417,"state_code":null,"zip_code":"10016"}],"total_money_raised":"$400k"},{"founded_year":2009,"name":"Ikanos","offices":[{"city":"Fremont","description":"","address1":"47669 Fremont Blvd.","address2":"","longitude":-121.9417078,"country_code":"USA","latitude":37.4734314,"state_code":"CA","zip_code":"94538"}],"total_money_raised":"$42M"},{"founded_year":2009,"name":"1calendar","offices":[{"city":"Copenhagen","description":"Headquarter","address1":"Kompagnistr\u00e6de 20B, 1 th.","address2":"","longitude":12.5751278,"country_code":"DNK","latitude":55.6770321,"state_code":null,"zip_code":"1208"},{"city":"Copenhagen","description":"Research Office","address1":"Howitzvej 60, 5. sal","address2":"","longitude":12.524884,"country_code":"DNK","latitude":55.6802318,"state_code":null,"zip_code":"2000"}],"total_money_raised":"$40k"},{"founded_year":2009,"name":"Tempolib","offices":[{"city":"Marseille","description":"P\u00c3\u00b4le M\u00c3\u00a9dia Belle de Mai","address1":"37, rue Guibal","address2":"","longitude":5.3873453,"country_code":"FRA","latitude":43.3075798,"state_code":null,"zip_code":"13003"}],"total_money_raised":"\u20ac200k"},{"founded_year":2009,"name":"drchrono","offices":[{"city":"Mountain View","description":"Chronoplex","address1":"1001 Rengstorff Avenue","address2":"","longitude":-122.0933053,"country_code":"USA","latitude":37.4202074,"state_code":"CA","zip_code":"94043"}],"total_money_raised":"$4.13M"},{"founded_year":2009,"name":"Shareaholic","offices":[{"city":"Boston","description":"Shareaholic","address1":"109 Kingston Street","address2":"4th Floor","longitude":-71.1032591,"country_code":"USA","latitude":42.3647559,"state_code":"MA","zip_code":"02111"}],"total_money_raised":"$5.46M"},{"founded_year":2009,"name":"Social Collective","offices":[{"city":"Arlington","description":"HQ","address1":"733 North Danville Street","address2":"","longitude":-77.089398,"country_code":"USA","latitude":38.881717,"state_code":"VA","zip_code":"22201"}],"total_money_raised":"$20k"},{"founded_year":2009,"name":"ZodBod","offices":[{"city":"Bath","description":"HQ","address1":"34 Belvedere","address2":"","longitude":-2.3626891,"country_code":"GBR","latitude":51.3891333,"state_code":null,"zip_code":"BA1 5PA"}],"total_money_raised":"\u00a325k"},{"founded_year":2009,"name":"The Resumator","offices":[{"city":"Pittsburgh","description":"","address1":"","address2":"","longitude":-80.001933,"country_code":"USA","latitude":40.438423,"state_code":"PA","zip_code":""}],"total_money_raised":"$2.98M"},{"founded_year":2010,"name":"Fliptop","offices":[{"city":"San Francisco","description":"Headquarters","address1":"580 Howard Street","address2":"Suite 201","longitude":-122.419209,"country_code":"USA","latitude":37.775206,"state_code":"CA","zip_code":"94105"}],"total_money_raised":"$6.79M"},{"founded_year":2009,"name":"ClickFuel","offices":[{"city":"Burlington","description":"ClickFuel","address1":"7 New England Executive Park","address2":"Suite 130","longitude":-71.0680027,"country_code":"USA","latitude":42.3406534,"state_code":"MA","zip_code":"01803"}],"total_money_raised":"$9M"},{"founded_year":2009,"name":"Gravity","offices":[{"city":"Santa Monica","description":"","address1":"Project Rover, Inc.","address2":"","longitude":-118.489681,"country_code":"USA","latitude":34.007967,"state_code":"CA","zip_code":""}],"total_money_raised":"$20.6M"},{"founded_year":2010,"name":"Chicisimo","offices":[{"city":"Bilbao","description":"Office","address1":"Calle Henao 14","address2":"n\u00ba 4, 4\u00baD","longitude":-2.9308322,"country_code":"ESP","latitude":43.264499,"state_code":null,"zip_code":""}],"total_money_raised":"$800k"},{"founded_year":2009,"name":"Althea Systems","offices":[{"city":"Bangalore","description":"HQ","address1":"#773, 80 Feet Road","address2":"4th Block, Koramangala","longitude":77.6136847,"country_code":"IND","latitude":12.9349604,"state_code":null,"zip_code":"560034"}],"total_money_raised":"$3M"},{"founded_year":2009,"name":"Udorse","offices":[{"city":"New York","description":"","address1":"","address2":"","longitude":-73.986951,"country_code":"USA","latitude":40.756054,"state_code":"NY","zip_code":""}],"total_money_raised":"$500k"},{"founded_year":2009,"name":"BitMethod","offices":[{"city":"Des Moines","description":"Liberty Building","address1":"418 6th Avenue","address2":"Suite 1210","longitude":-93.621998,"country_code":"USA","latitude":41.581232,"state_code":"IA","zip_code":"50309"}],"total_money_raised":"$50k"},{"founded_year":2013,"name":"VistaGen Therapeutics","offices":[{"city":"South San Francisco","description":"","address1":"384 Oyster Point Blvd., Suite #8","address2":"","longitude":-122.3843489,"country_code":"USA","latitude":37.6656476,"state_code":"CA","zip_code":"94080"}],"total_money_raised":"$41.3M"},{"founded_year":2009,"name":"Applied Genetics Technologies Corporation","offices":[{"city":"Alachua","description":"Headquarters","address1":"11801 Research Drive","address2":"Suite D","longitude":-82.4768036,"country_code":"USA","latitude":29.7847641,"state_code":"FL","zip_code":"32615"}],"total_money_raised":"$78.1M"},{"founded_year":2009,"name":"Solix Biofuels","offices":[{"city":"Fort Collins","description":"Solix Biofuels","address1":"430 B. North College Ave.","address2":"","longitude":-105.0766501,"country_code":"USA","latitude":40.5932386,"state_code":"CO","zip_code":"80524"}],"total_money_raised":"$68.8M"},{"founded_year":2009,"name":"Ykone","offices":[{"city":"Paris","description":"Ykone Headquarters","address1":"","address2":"","longitude":2.3509871,"country_code":"FRA","latitude":48.8566667,"state_code":null,"zip_code":""}],"total_money_raised":"\u20ac1.5M"},{"founded_year":2009,"name":"Clovis Oncology","offices":[{"city":"Boulder","description":"HQ","address1":"2525 28th Street","address2":"Suite 100","longitude":-105.259041,"country_code":"USA","latitude":40.026,"state_code":"CO","zip_code":"80301"}],"total_money_raised":"$357M"},{"founded_year":2009,"name":"Actinobac Biomed","offices":[{"city":"North Brunswick","description":"Actinobac Biomed, Inc.","address1":"675 US Highway 1","address2":"","longitude":-74.478931,"country_code":"USA","latitude":40.455501,"state_code":"NJ","zip_code":"08902"}],"total_money_raised":"$600k"},{"founded_year":2009,"name":"Lipperhey","offices":[{"city":"Amsterdam","description":"Amsterdam Office","address1":"Timorplein 42","address2":"","longitude":4.9345824,"country_code":"NLD","latitude":52.3655578,"state_code":null,"zip_code":"1094CC"}],"total_money_raised":"\u20ac200k"},{"founded_year":2010,"name":"ticketea","offices":[{"city":"Madrid","description":"Office","address1":"Marques de Lema","address2":"7","longitude":-3.7061764,"country_code":"ESP","latitude":40.4455155,"state_code":null,"zip_code":"28003"}],"total_money_raised":"$5.73M"},{"founded_year":2009,"name":"TwtBks","offices":[{"city":"San Francisco","description":"TwtBks","address1":"442 Shotwell","address2":"","longitude":-122.4160008,"country_code":"USA","latitude":37.7611016,"state_code":"CA","zip_code":"94110"}],"total_money_raised":"$25k"},{"founded_year":2009,"name":"Delphi","offices":[{"city":"","description":"","address1":"5725 Delphi Drive","address2":"Troy","longitude":-83.16134,"country_code":"USA","latitude":42.603532,"state_code":"MI","zip_code":"48098"}],"total_money_raised":"$8M"},{"founded_year":2009,"name":"ChallengePost","offices":[{"city":"New York","description":"","address1":"425 West 13th Street","address2":"Suite 504","longitude":-74.00717,"country_code":"USA","latitude":40.7408042,"state_code":"NY","zip_code":"10014"}],"total_money_raised":"$4.6M"},{"founded_year":2009,"name":"Revetto","offices":[{"city":"Zeeland","description":"Temporary Office","address1":"201 W. Washington Ave.","address2":"Suite 410","longitude":-86.023846,"country_code":"USA","latitude":42.8138649,"state_code":"MI","zip_code":"49464"}],"total_money_raised":"$20k"},{"founded_year":2009,"name":"Getyoo","offices":[{"city":"Brussels","description":"HQ","address1":"Rue des Tanneurs, 60a","address2":"","longitude":4.3464721,"country_code":"BEL","latitude":50.83997,"state_code":null,"zip_code":"1000"}],"total_money_raised":"\u20ac1.13M"}]